{
  "movies": [
    {
      "id": "1258509-stin-sem-eftir-er",
      "screening_date": "2026-01-09",
      "hours": "20:30",
      "title": "L'Amour qu'il nous reste"
    },
    {
      "id": "1211442-rebuilding",
      "screening_date": "2026-01-10",
      "hours": "17:30",
      "title": "Rebuilding"
    },
    {
      "id": "1266826-la-petite-cuisine-de-mehdi",
      "screening_date": "2026-01-10",
      "hours": "20:30",
      "title": "La petite cuisine de Mehdi"
    },
    {
      "id": "1309373-le-chant-des-forets",
      "screening_date": "2026-01-11",
      "hours": "17:30",
      "title": "Le chant des forêts"
    },
    {
      "id": "1220564-o-agente-secreto",
      "screening_date": "2026-01-13",
      "hours": "20:30",
      "title": "L'agent secret"
    },
    {
      "id": "1069650-l-engloutie",
      "screening_date": "2026-01-16",
      "hours": "20:30",
      "title": "L'engloutie"
    },
    {
      "id": "1368166-the-housemaid",
      "screening_date": "2026-01-17",
      "hours": "17:30",
      "title": "La femme de ménage"
    },
    {
      "id": "1269644-amrum",
      "screening_date": "2026-01-17",
      "hours": "20:30",
      "title": "Une enfance allemande"
    },
    {
      "id": "991494-the-spongebob-movie-search-for-squarepants",
      "screening_date": "2026-01-18",
      "hours": "15:00",
      "title": "Bob l'éponge le film"
    },
    {
      "id": "1421153",
      "screening_date": "2026-01-18",
      "hours": "17:30",
      "title": "Le temps des moissons"
    },
    {
      "id": "1379266",
      "screening_date": "2026-01-20",
      "hours": "20:30",
      "title": "Le maître du kabuki"
    },
    {
      "id": "1308618-qui-brille-au-combat",
      "screening_date": "2026-01-23",
      "hours": "20:30",
      "title": "Qui brille au combat"
    },
    {
      "id": "1371185-song-sung-blue",
      "screening_date": "2026-01-24",
      "hours": "17:30",
      "title": "Sur un air de blues"
    },
    {
      "id": "1383289-laurent-dans-le-vent",
      "screening_date": "2026-01-24",
      "hours": "20:30",
      "title": "Laurent dans le vent"
    },
    {
      "id": "975335-magalhaes",
      "screening_date": "2026-01-25",
      "hours": "17:30",
      "title": "Magellan"
    },
    {
      "id": "1001288-vade-retro",
      "screening_date": "2026-01-27",
      "hours": "20:30",
      "title": "Vade Retro"
    },
    {
      "id": "1235277-la-pire-mere-au-monde",
      "screening_date": "2026-01-28",
      "hours": "15:00",
      "title": "La pire mère au monde"
    },
    {
      "id": "1290436",
      "screening_date": "2026-01-30",
      "hours": "20:30",
      "title": "Ma Frère"
    },
    {
      "id": "1159206-father-mother-sister-brother",
      "screening_date": "2026-01-31",
      "hours": "17:30",
      "title": "Father Mother Sister Brother"
    },
    {
      "id": "1290450-love-me-tender",
      "screening_date": "2026-01-31",
      "hours": "20:30",
      "title": "Love Me Tender"
    },
    {
      "id": "1585049-premieres-neiges",
      "screening_date": "2026-02-01",
      "hours": "16:00",
      "title": "Premières neiges"
    },
    {
      "id": "1221061-in-die-sonne-schauen",
      "screening_date": "2026-02-01",
      "hours": "17:30",
      "title": "Les échos du passé"
    },
    {
      "id": "1567472-tout-va-bien",
      "screening_date": "2026-02-03",
      "hours": "20:30",
      "title": "Tout va bien"
    }
  ]
}